[
  {
    "pet_id": "PET_16",
    "osm_id": "HK_LCSD_16",
    "name": "Aberdeen Country Park Pet Area",
    "country": "Hong Kong",
    "country_code": "HK",
    "city": "Hong Kong",
    "latitude": 22.2475,
    "longitude": 114.1565,
    "pet_garden_type": "Official Pet Garden",
    "data_source": "LCSD Official Registry",
    "confidence_score": 0.99,
    "data_category": "GOVERNMENT_VERIFIED"
  },
  {
    "pet_id": "PET_32",
    "osm_id": "HK_LCSD_32",
    "name": "Aberdeen Promenade Pet Garden",
    "country": "Hong Kong",
    "country_code": "HK",
    "city": "Hong Kong",
    "latitude": 22.248,
    "longitude": 114.155,
    "pet_garden_type": "Official Pet Garden",
    "data_source": "LCSD Official Registry",
    "confidence_score": 0.99,
    "data_category": "GOVERNMENT_VERIFIED"
  },
  {
    "pet_id": "PET_35",
    "osm_id": "HK_LCSD_35",
    "name": "Ap Lei Chau Wind Tower Park Pet Garden",
    "country": "Hong Kong",
    "country_code": "HK",
    "city": "Hong Kong",
    "latitude": 22.2438,
    "longitude": 114.152,
    "pet_garden_type": "Official Pet Garden",
    "data_source": "LCSD Official Registry",
    "confidence_score": 0.99,
    "data_category": "GOVERNMENT_VERIFIED"
  },
  {
    "pet_id": "PET_9",
    "osm_id": "HK_LCSD_9",
    "name": "Butterfly Estate Pet Garden",
    "country": "Hong Kong",
    "country_code": "HK",
    "city": "Hong Kong",
    "latitude": 22.372,
    "longitude": 113.962,
    "pet_garden_type": "Official Pet Garden",
    "data_source": "LCSD Official Registry",
    "confidence_score": 0.99,
    "data_category": "GOVERNMENT_VERIFIED"
  },
  {
    "pet_id": "PET_37",
    "osm_id": "HK_LCSD_37",
    "name": "Central Dog Exercise Area",
    "country": "Hong Kong",
    "country_code": "HK",
    "city": "Hong Kong",
    "latitude": 22.288,
    "longitude": 114.141,
    "pet_garden_type": "Official Pet Garden",
    "data_source": "LCSD Official Registry",
    "confidence_score": 0.99,
    "data_category": "GOVERNMENT_VERIFIED"
  },
  {
    "pet_id": "PET_15",
    "osm_id": "HK_LCSD_15",
    "name": "Chai Wan Park Pet Garden",
    "country": "Hong Kong",
    "country_code": "HK",
    "city": "Hong Kong",
    "latitude": 22.2639,
    "longitude": 114.237,
    "pet_garden_type": "Official Pet Garden",
    "data_source": "LCSD Official Registry",
    "confidence_score": 0.99,
    "data_category": "GOVERNMENT_VERIFIED"
  },
  {
    "pet_id": "PET_34",
    "osm_id": "HK_LCSD_34",
    "name": "Discovery Bay Pet Garden",
    "country": "Hong Kong",
    "country_code": "HK",
    "city": "Hong Kong",
    "latitude": 22.2944,
    "longitude": 114.0157,
    "pet_garden_type": "Official Pet Garden",
    "data_source": "LCSD Official Registry",
    "confidence_score": 0.99,
    "data_category": "GOVERNMENT_VERIFIED"
  },
  {
    "pet_id": "PET_11",
    "osm_id": "HK_LCSD_11",
    "name": "Fanling Pet Garden",
    "country": "Hong Kong",
    "country_code": "HK",
    "city": "Hong Kong",
    "latitude": 22.492,
    "longitude": 114.138,
    "pet_garden_type": "Official Pet Garden",
    "data_source": "LCSD Official Registry",
    "confidence_score": 0.99,
    "data_category": "GOVERNMENT_VERIFIED"
  },
  {
    "pet_id": "PET_31",
    "osm_id": "HK_LCSD_31",
    "name": "Hung Hom Park Pet Garden",
    "country": "Hong Kong",
    "country_code": "HK",
    "city": "Hong Kong",
    "latitude": 22.3075,
    "longitude": 114.187,
    "pet_garden_type": "Official Pet Garden",
    "data_source": "LCSD Official Registry",
    "confidence_score": 0.99,
    "data_category": "GOVERNMENT_VERIFIED"
  },
  {
    "pet_id": "PET_28",
    "osm_id": "HK_LCSD_28",
    "name": "Kai Tak Pet Garden",
    "country": "Hong Kong",
    "country_code": "HK",
    "city": "Hong Kong",
    "latitude": 22.3287,
    "longitude": 114.203,
    "pet_garden_type": "Official Pet Garden",
    "data_source": "LCSD Official Registry",
    "confidence_score": 0.99,
    "data_category": "GOVERNMENT_VERIFIED"
  },
  {
    "pet_id": "PET_23",
    "osm_id": "HK_LCSD_23",
    "name": "Kennedy Town Pet Garden",
    "country": "Hong Kong",
    "country_code": "HK",
    "city": "Hong Kong",
    "latitude": 22.282,
    "longitude": 114.1283,
    "pet_garden_type": "Official Pet Garden",
    "data_source": "LCSD Official Registry",
    "confidence_score": 0.99,
    "data_category": "GOVERNMENT_VERIFIED"
  },
  {
    "pet_id": "PET_8",
    "osm_id": "HK_LCSD_8",
    "name": "Kowloon Park Pet Garden",
    "country": "Hong Kong",
    "country_code": "HK",
    "city": "Hong Kong",
    "latitude": 22.301,
    "longitude": 114.1702,
    "pet_garden_type": "Official Pet Garden",
    "data_source": "LCSD Official Registry",
    "confidence_score": 0.99,
    "data_category": "GOVERNMENT_VERIFIED"
  },
  {
    "pet_id": "PET_3",
    "osm_id": "HK_LCSD_3",
    "name": "Kowloon Tsai Park Pet Garden",
    "country": "Hong Kong",
    "country_code": "HK",
    "city": "Hong Kong",
    "latitude": 22.3362,
    "longitude": 114.1759,
    "pet_garden_type": "Official Pet Garden",
    "data_source": "LCSD Official Registry",
    "confidence_score": 0.99,
    "data_category": "GOVERNMENT_VERIFIED"
  },
  {
    "pet_id": "PET_20",
    "osm_id": "HK_LCSD_20",
    "name": "Kwai Chung Park Pet Garden",
    "country": "Hong Kong",
    "country_code": "HK",
    "city": "Hong Kong",
    "latitude": 22.3578,
    "longitude": 114.1268,
    "pet_garden_type": "Official Pet Garden",
    "data_source": "LCSD Official Registry",
    "confidence_score": 0.99,
    "data_category": "GOVERNMENT_VERIFIED"
  },
  {
    "pet_id": "PET_27",
    "osm_id": "HK_LCSD_27",
    "name": "Kwun Tong Promenade Pet Garden",
    "country": "Hong Kong",
    "country_code": "HK",
    "city": "Hong Kong",
    "latitude": 22.3118,
    "longitude": 114.225,
    "pet_garden_type": "Official Pet Garden",
    "data_source": "LCSD Official Registry",
    "confidence_score": 0.99,
    "data_category": "GOVERNMENT_VERIFIED"
  },
  {
    "pet_id": "PET_2",
    "osm_id": "HK_LCSD_2",
    "name": "Lai Chi Kok Park Pet Garden",
    "country": "Hong Kong",
    "country_code": "HK",
    "city": "Hong Kong",
    "latitude": 22.3365,
    "longitude": 114.1488,
    "pet_garden_type": "Official Pet Garden",
    "data_source": "LCSD Official Registry",
    "confidence_score": 0.99,
    "data_category": "GOVERNMENT_VERIFIED"
  },
  {
    "pet_id": "PET_29",
    "osm_id": "HK_LCSD_29",
    "name": "Lei Yue Mun Park Pet Garden",
    "country": "Hong Kong",
    "country_code": "HK",
    "city": "Hong Kong",
    "latitude": 22.299,
    "longitude": 114.235,
    "pet_garden_type": "Official Pet Garden",
    "data_source": "LCSD Official Registry",
    "confidence_score": 0.99,
    "data_category": "GOVERNMENT_VERIFIED"
  },
  {
    "pet_id": "PET_19",
    "osm_id": "HK_LCSD_19",
    "name": "Ma On Shan Park Pet Garden",
    "country": "Hong Kong",
    "country_code": "HK",
    "city": "Hong Kong",
    "latitude": 22.424,
    "longitude": 114.232,
    "pet_garden_type": "Official Pet Garden",
    "data_source": "LCSD Official Registry",
    "confidence_score": 0.99,
    "data_category": "GOVERNMENT_VERIFIED"
  },
  {
    "pet_id": "PET_1",
    "osm_id": "HK_LCSD_1",
    "name": "Morse Park Pet Garden",
    "country": "Hong Kong",
    "country_code": "HK",
    "city": "Hong Kong",
    "latitude": 22.3425,
    "longitude": 114.1946,
    "pet_garden_type": "Official Pet Garden",
    "data_source": "LCSD Official Registry",
    "confidence_score": 0.99,
    "data_category": "GOVERNMENT_VERIFIED"
  },
  {
    "pet_id": "PET_24",
    "osm_id": "HK_LCSD_24",
    "name": "Pok Fu Lam Pet Garden",
    "country": "Hong Kong",
    "country_code": "HK",
    "city": "Hong Kong",
    "latitude": 22.2594,
    "longitude": 114.1354,
    "pet_garden_type": "Official Pet Garden",
    "data_source": "LCSD Official Registry",
    "confidence_score": 0.99,
    "data_category": "GOVERNMENT_VERIFIED"
  },
  {
    "pet_id": "PET_6",
    "osm_id": "HK_LCSD_6",
    "name": "Quarry Bay Park Pet Garden",
    "country": "Hong Kong",
    "country_code": "HK",
    "city": "Hong Kong",
    "latitude": 22.2876,
    "longitude": 114.2132,
    "pet_garden_type": "Official Pet Garden",
    "data_source": "LCSD Official Registry",
    "confidence_score": 0.99,
    "data_category": "GOVERNMENT_VERIFIED"
  },
  {
    "pet_id": "PET_22",
    "osm_id": "HK_LCSD_22",
    "name": "Sai Kung Pet Garden",
    "country": "Hong Kong",
    "country_code": "HK",
    "city": "Hong Kong",
    "latitude": 22.3818,
    "longitude": 114.2713,
    "pet_garden_type": "Official Pet Garden",
    "data_source": "LCSD Official Registry",
    "confidence_score": 0.99,
    "data_category": "GOVERNMENT_VERIFIED"
  },
  {
    "pet_id": "PET_12",
    "osm_id": "HK_LCSD_12",
    "name": "Sha Tin Park Pet Garden",
    "country": "Hong Kong",
    "country_code": "HK",
    "city": "Hong Kong",
    "latitude": 22.3813,
    "longitude": 114.1895,
    "pet_garden_type": "Official Pet Garden",
    "data_source": "LCSD Official Registry",
    "confidence_score": 0.99,
    "data_category": "GOVERNMENT_VERIFIED"
  },
  {
    "pet_id": "PET_25",
    "osm_id": "HK_LCSD_25",
    "name": "Sham Shui Po Park Pet Garden",
    "country": "Hong Kong",
    "country_code": "HK",
    "city": "Hong Kong",
    "latitude": 22.3318,
    "longitude": 114.159,
    "pet_garden_type": "Official Pet Garden",
    "data_source": "LCSD Official Registry",
    "confidence_score": 0.99,
    "data_category": "GOVERNMENT_VERIFIED"
  },
  {
    "pet_id": "PET_10",
    "osm_id": "HK_LCSD_10",
    "name": "Sheung Shui Pet Garden",
    "country": "Hong Kong",
    "country_code": "HK",
    "city": "Hong Kong",
    "latitude": 22.5024,
    "longitude": 114.1278,
    "pet_garden_type": "Official Pet Garden",
    "data_source": "LCSD Official Registry",
    "confidence_score": 0.99,
    "data_category": "GOVERNMENT_VERIFIED"
  },
  {
    "pet_id": "PET_17",
    "osm_id": "HK_LCSD_17",
    "name": "South Horizons Pet Garden",
    "country": "Hong Kong",
    "country_code": "HK",
    "city": "Hong Kong",
    "latitude": 22.2433,
    "longitude": 114.1485,
    "pet_garden_type": "Official Pet Garden",
    "data_source": "LCSD Official Registry",
    "confidence_score": 0.99,
    "data_category": "GOVERNMENT_VERIFIED"
  },
  {
    "pet_id": "PET_30",
    "osm_id": "HK_LCSD_30",
    "name": "Tai Kok Tsui Pet Garden",
    "country": "Hong Kong",
    "country_code": "HK",
    "city": "Hong Kong",
    "latitude": 22.3224,
    "longitude": 114.1615,
    "pet_garden_type": "Official Pet Garden",
    "data_source": "LCSD Official Registry",
    "confidence_score": 0.99,
    "data_category": "GOVERNMENT_VERIFIED"
  },
  {
    "pet_id": "PET_5",
    "osm_id": "HK_LCSD_5",
    "name": "Tai Po Waterfront Park Pet Garden",
    "country": "Hong Kong",
    "country_code": "HK",
    "city": "Hong Kong",
    "latitude": 22.4458,
    "longitude": 114.1709,
    "pet_garden_type": "Official Pet Garden",
    "data_source": "LCSD Official Registry",
    "confidence_score": 0.99,
    "data_category": "GOVERNMENT_VERIFIED"
  },
  {
    "pet_id": "PET_13",
    "osm_id": "HK_LCSD_13",
    "name": "Tin Shui Wai Park Pet Garden",
    "country": "Hong Kong",
    "country_code": "HK",
    "city": "Hong Kong",
    "latitude": 22.465,
    "longitude": 114.003,
    "pet_garden_type": "Official Pet Garden",
    "data_source": "LCSD Official Registry",
    "confidence_score": 0.99,
    "data_category": "GOVERNMENT_VERIFIED"
  },
  {
    "pet_id": "PET_36",
    "osm_id": "HK_LCSD_36",
    "name": "To Kwa Wan Pet Garden",
    "country": "Hong Kong",
    "country_code": "HK",
    "city": "Hong Kong",
    "latitude": 22.326,
    "longitude": 114.189,
    "pet_garden_type": "Official Pet Garden",
    "data_source": "LCSD Official Registry",
    "confidence_score": 0.99,
    "data_category": "GOVERNMENT_VERIFIED"
  },
  {
    "pet_id": "PET_21",
    "osm_id": "HK_LCSD_21",
    "name": "Tseung Kwan O Pet Garden",
    "country": "Hong Kong",
    "country_code": "HK",
    "city": "Hong Kong",
    "latitude": 22.31,
    "longitude": 114.258,
    "pet_garden_type": "Official Pet Garden",
    "data_source": "LCSD Official Registry",
    "confidence_score": 0.99,
    "data_category": "GOVERNMENT_VERIFIED"
  },
  {
    "pet_id": "PET_26",
    "osm_id": "HK_LCSD_26",
    "name": "Tsing Yi Park Pet Garden",
    "country": "Hong Kong",
    "country_code": "HK",
    "city": "Hong Kong",
    "latitude": 22.3445,
    "longitude": 114.1052,
    "pet_garden_type": "Official Pet Garden",
    "data_source": "LCSD Official Registry",
    "confidence_score": 0.99,
    "data_category": "GOVERNMENT_VERIFIED"
  },
  {
    "pet_id": "PET_18",
    "osm_id": "HK_LCSD_18",
    "name": "Tsuen Wan Riviera Park Pet Garden",
    "country": "Hong Kong",
    "country_code": "HK",
    "city": "Hong Kong",
    "latitude": 22.3715,
    "longitude": 114.113,
    "pet_garden_type": "Official Pet Garden",
    "data_source": "LCSD Official Registry",
    "confidence_score": 0.99,
    "data_category": "GOVERNMENT_VERIFIED"
  },
  {
    "pet_id": "PET_4",
    "osm_id": "HK_LCSD_4",
    "name": "Tuen Mun Park Pet Garden",
    "country": "Hong Kong",
    "country_code": "HK",
    "city": "Hong Kong",
    "latitude": 22.392,
    "longitude": 113.9765,
    "pet_garden_type": "Official Pet Garden",
    "data_source": "LCSD Official Registry",
    "confidence_score": 0.99,
    "data_category": "GOVERNMENT_VERIFIED"
  },
  {
    "pet_id": "PET_33",
    "osm_id": "HK_LCSD_33",
    "name": "Tung Chung North Park Pet Garden",
    "country": "Hong Kong",
    "country_code": "HK",
    "city": "Hong Kong",
    "latitude": 22.292,
    "longitude": 113.943,
    "pet_garden_type": "Official Pet Garden",
    "data_source": "LCSD Official Registry",
    "confidence_score": 0.99,
    "data_category": "GOVERNMENT_VERIFIED"
  },
  {
    "pet_id": "PET_7",
    "osm_id": "HK_LCSD_7",
    "name": "Victoria Park Pet Garden",
    "country": "Hong Kong",
    "country_code": "HK",
    "city": "Hong Kong",
    "latitude": 22.2825,
    "longitude": 114.1887,
    "pet_garden_type": "Official Pet Garden",
    "data_source": "LCSD Official Registry",
    "confidence_score": 0.99,
    "data_category": "GOVERNMENT_VERIFIED"
  },
  {
    "pet_id": "PET_38",
    "osm_id": "HK_LCSD_38",
    "name": "Wan Chai Dog Exercise Area",
    "country": "Hong Kong",
    "country_code": "HK",
    "city": "Hong Kong",
    "latitude": 22.277,
    "longitude": 114.173,
    "pet_garden_type": "Official Pet Garden",
    "data_source": "LCSD Official Registry",
    "confidence_score": 0.99,
    "data_category": "GOVERNMENT_VERIFIED"
  },
  {
    "pet_id": "PET_39",
    "osm_id": "HK_LCSD_39",
    "name": "Yau Ma Tei Pet Garden",
    "country": "Hong Kong",
    "country_code": "HK",
    "city": "Hong Kong",
    "latitude": 22.312,
    "longitude": 114.17,
    "pet_garden_type": "Official Pet Garden",
    "data_source": "LCSD Official Registry",
    "confidence_score": 0.99,
    "data_category": "GOVERNMENT_VERIFIED"
  },
  {
    "pet_id": "PET_14",
    "osm_id": "HK_LCSD_14",
    "name": "Yuen Long Park Pet Garden",
    "country": "Hong Kong",
    "country_code": "HK",
    "city": "Hong Kong",
    "latitude": 22.4443,
    "longitude": 114.0217,
    "pet_garden_type": "Official Pet Garden",
    "data_source": "LCSD Official Registry",
    "confidence_score": 0.99,
    "data_category": "GOVERNMENT_VERIFIED"
  },
  {
    "pet_id": "PET_52",
    "osm_id": "OSM_AU_2",
    "name": "Brighton Beach Dog Area",
    "country": "Australia",
    "country_code": "AU",
    "city": "Melbourne",
    "latitude": -37.8732,
    "longitude": 144.9873,
    "pet_garden_type": "Dog Beach",
    "data_source": "OpenStreetMap Reference",
    "confidence_score": 0.85,
    "data_category": "OSM_VERIFIED"
  },
  {
    "pet_id": "PET_51",
    "osm_id": "OSM_AU_1",
    "name": "Centennial Park Dog Zone",
    "country": "Australia",
    "country_code": "AU",
    "city": "Sydney",
    "latitude": -33.8903,
    "longitude": 151.215,
    "pet_garden_type": "Pet Recreation Area",
    "data_source": "OpenStreetMap Reference",
    "confidence_score": 0.85,
    "data_category": "OSM_VERIFIED"
  },
  {
    "pet_id": "PET_50",
    "osm_id": "OSM_CA_2",
    "name": "Jericho Beach Dog Area",
    "country": "Canada",
    "country_code": "CA",
    "city": "Vancouver",
    "latitude": 49.2706,
    "longitude": -123.1929,
    "pet_garden_type": "Dog Beach",
    "data_source": "OpenStreetMap Reference",
    "confidence_score": 0.85,
    "data_category": "OSM_VERIFIED"
  },
  {
    "pet_id": "PET_49",
    "osm_id": "OSM_CA_1",
    "name": "Stanley Park Off-Leash Area",
    "country": "Canada",
    "country_code": "CA",
    "city": "Vancouver",
    "latitude": 49.32,
    "longitude": -123.1617,
    "pet_garden_type": "Off-Leash Area",
    "data_source": "OpenStreetMap Reference",
    "confidence_score": 0.85,
    "data_category": "OSM_VERIFIED"
  },
  {
    "pet_id": "PET_55",
    "osm_id": "OSM_FR_1",
    "name": "Bois de Boulogne Dog Park",
    "country": "France",
    "country_code": "FR",
    "city": "Paris",
    "latitude": 48.8467,
    "longitude": 2.2287,
    "pet_garden_type": "Pet Park",
    "data_source": "OpenStreetMap Reference",
    "confidence_score": 0.85,
    "data_category": "OSM_VERIFIED"
  },
  {
    "pet_id": "PET_54",
    "osm_id": "OSM_DE_1",
    "name": "Tiergarten Park Dog Area",
    "country": "Germany",
    "country_code": "DE",
    "city": "Berlin",
    "latitude": 52.5195,
    "longitude": 13.3645,
    "pet_garden_type": "Pet Park",
    "data_source": "OpenStreetMap Reference",
    "confidence_score": 0.85,
    "data_category": "OSM_VERIFIED"
  },
  {
    "pet_id": "PET_56",
    "osm_id": "OSM_IT_1",
    "name": "Sempione Park Dog Area",
    "country": "Italy",
    "country_code": "IT",
    "city": "Milan",
    "latitude": 45.4778,
    "longitude": 9.1857,
    "pet_garden_type": "Off-Leash Area",
    "data_source": "OpenStreetMap Reference",
    "confidence_score": 0.85,
    "data_category": "OSM_VERIFIED"
  },
  {
    "pet_id": "PET_53",
    "osm_id": "OSM_JP_1",
    "name": "Yoyogi Park Dog Run",
    "country": "Japan",
    "country_code": "JP",
    "city": "Tokyo",
    "latitude": 35.6724,
    "longitude": 139.6985,
    "pet_garden_type": "Dog Run",
    "data_source": "OpenStreetMap Reference",
    "confidence_score": 0.85,
    "data_category": "OSM_VERIFIED"
  },
  {
    "pet_id": "PET_40",
    "osm_id": "OSM_SG_1",
    "name": "Bishan Park Dog Run",
    "country": "Singapore",
    "country_code": "SG",
    "city": "Bishan",
    "latitude": 1.3574,
    "longitude": 103.8482,
    "pet_garden_type": "Dog Run",
    "data_source": "OpenStreetMap Reference",
    "confidence_score": 0.85,
    "data_category": "OSM_VERIFIED"
  },
  {
    "pet_id": "PET_41",
    "osm_id": "OSM_SG_2",
    "name": "Punggol Park Dog Area",
    "country": "Singapore",
    "country_code": "SG",
    "city": "Punggol",
    "latitude": 1.4004,
    "longitude": 103.9133,
    "pet_garden_type": "Pet Park",
    "data_source": "OpenStreetMap Reference",
    "confidence_score": 0.85,
    "data_category": "OSM_VERIFIED"
  },
  {
    "pet_id": "PET_58",
    "osm_id": "OSM_KR_1",
    "name": "Seoul Forest Dog Park",
    "country": "South Korea",
    "country_code": "KR",
    "city": "Seoul",
    "latitude": 37.5446,
    "longitude": 127.0394,
    "pet_garden_type": "Dog Park",
    "data_source": "OpenStreetMap Reference",
    "confidence_score": 0.85,
    "data_category": "OSM_VERIFIED"
  },
  {
    "pet_id": "PET_57",
    "osm_id": "OSM_ES_1",
    "name": "Citadel Park Dog Zone",
    "country": "Spain",
    "country_code": "ES",
    "city": "Barcelona",
    "latitude": 41.3845,
    "longitude": 2.1838,
    "pet_garden_type": "Pet Recreation Area",
    "data_source": "OpenStreetMap Reference",
    "confidence_score": 0.85,
    "data_category": "OSM_VERIFIED"
  },
  {
    "pet_id": "PET_59",
    "osm_id": "OSM_TH_1",
    "name": "Benjakitti Park Pet Area",
    "country": "Thailand",
    "country_code": "TH",
    "city": "Bangkok",
    "latitude": 13.7245,
    "longitude": 100.5634,
    "pet_garden_type": "Pet Park",
    "data_source": "OpenStreetMap Reference",
    "confidence_score": 0.85,
    "data_category": "OSM_VERIFIED"
  },
  {
    "pet_id": "PET_47",
    "osm_id": "OSM_UK_1",
    "name": "Hyde Park Dog Exercise Area",
    "country": "UK",
    "country_code": "GB",
    "city": "London",
    "latitude": 51.5074,
    "longitude": -0.1657,
    "pet_garden_type": "Off-Leash Area",
    "data_source": "OpenStreetMap Reference",
    "confidence_score": 0.85,
    "data_category": "OSM_VERIFIED"
  },
  {
    "pet_id": "PET_48",
    "osm_id": "OSM_UK_2",
    "name": "Regent's Park Dog Area",
    "country": "UK",
    "country_code": "GB",
    "city": "London",
    "latitude": 51.5237,
    "longitude": -0.1548,
    "pet_garden_type": "Pet Park",
    "data_source": "OpenStreetMap Reference",
    "confidence_score": 0.85,
    "data_category": "OSM_VERIFIED"
  },
  {
    "pet_id": "PET_44",
    "osm_id": "OSM_US_CA_3",
    "name": "Fort Funston Dog Recreation Area",
    "country": "USA",
    "country_code": "US",
    "city": "San Francisco",
    "latitude": 37.7389,
    "longitude": -122.5109,
    "pet_garden_type": "Off-Leash Area",
    "data_source": "OpenStreetMap Reference",
    "confidence_score": 0.85,
    "data_category": "OSM_VERIFIED"
  },
  {
    "pet_id": "PET_42",
    "osm_id": "OSM_US_CA_1",
    "name": "Golden Gate Park Off-Leash Area",
    "country": "USA",
    "country_code": "US",
    "city": "San Francisco",
    "latitude": 37.7694,
    "longitude": -122.4862,
    "pet_garden_type": "Off-Leash Area",
    "data_source": "OpenStreetMap Reference",
    "confidence_score": 0.85,
    "data_category": "OSM_VERIFIED"
  },
  {
    "pet_id": "PET_43",
    "osm_id": "OSM_US_CA_2",
    "name": "Huntington Dog Beach",
    "country": "USA",
    "country_code": "US",
    "city": "Huntington Beach",
    "latitude": 33.6413,
    "longitude": -117.991,
    "pet_garden_type": "Dog Beach",
    "data_source": "OpenStreetMap Reference",
    "confidence_score": 0.85,
    "data_category": "OSM_VERIFIED"
  },
  {
    "pet_id": "PET_46",
    "osm_id": "OSM_US_NY_2",
    "name": "Madison Square Park Dog Run",
    "country": "USA",
    "country_code": "US",
    "city": "New York",
    "latitude": 40.7453,
    "longitude": -73.9879,
    "pet_garden_type": "Fenced Dog Run",
    "data_source": "OpenStreetMap Reference",
    "confidence_score": 0.85,
    "data_category": "OSM_VERIFIED"
  },
  {
    "pet_id": "PET_45",
    "osm_id": "OSM_US_NY_1",
    "name": "Washington Square Dog Run",
    "country": "USA",
    "country_code": "US",
    "city": "New York",
    "latitude": 40.7327,
    "longitude": -74.0026,
    "pet_garden_type": "Fenced Dog Run",
    "data_source": "OpenStreetMap Reference",
    "confidence_score": 0.85,
    "data_category": "OSM_VERIFIED"
  }
]
