{
  "type": "FeatureCollection",
  "features": [
    {
      "type": "Feature",
      "geometry": {
        "type": "Point",
        "coordinates": [
          114.1973,
          22.212024
        ]
      },
      "properties": {
        "name_eng": "Cheshire Home, Chung Hom Kok",
        "name_tc": "舂磡角慈氏護養院",
        "cluster": "Hong Kong Island Cluster",
        "address": "128 Chung Hom Kok Road, HK",
        "has_AE": "No"
      }
    },
    {
      "type": "Feature",
      "geometry": {
        "type": "Point",
        "coordinates": [
          114.17316,
          22.251156
        ]
      },
      "properties": {
        "name_eng": "Grantham Hospital",
        "name_tc": "葛量洪醫院",
        "cluster": "Hong Kong Island Cluster",
        "address": "125 Wong Chuk Hang Road, Aberdeen, HK",
        "has_AE": "No"
      }
    },
    {
      "type": "Feature",
      "geometry": {
        "type": "Point",
        "coordinates": [
          114.12399,
          22.269795
        ]
      },
      "properties": {
        "name_eng": "MacLehose Medical Rehabilitation Centre",
        "name_tc": "麥理浩復康院",
        "cluster": "Hong Kong Island Cluster",
        "address": "7 Sha Wan Drive, Pokfulam, HK",
        "has_AE": "No"
      }
    },
    {
      "type": "Feature",
      "geometry": {
        "type": "Point",
        "coordinates": [
          114.23643,
          22.26918
        ]
      },
      "properties": {
        "name_eng": "Pamela Youde Nethersole Eastern Hospital",
        "name_tc": "東區尤德夫人那打素醫院",
        "cluster": "Hong Kong Island Cluster",
        "address": "3 Lok Man Road, Chai Wan, HK",
        "has_AE": "Yes"
      }
    },
    {
      "type": "Feature",
      "geometry": {
        "type": "Point",
        "coordinates": [
          114.13117,
          22.2704
        ]
      },
      "properties": {
        "name_eng": "Queen Mary Hospital",
        "name_tc": "瑪麗醫院",
        "cluster": "Hong Kong Island Cluster",
        "address": "102 Pokfulam Road, HK",
        "has_AE": "Yes"
      }
    },
    {
      "type": "Feature",
      "geometry": {
        "type": "Point",
        "coordinates": [
          114.17529,
          22.275909
        ]
      },
      "properties": {
        "name_eng": "Ruttonjee Hospital",
        "name_tc": "律敦治醫院",
        "cluster": "Hong Kong Island Cluster",
        "address": "266 Queen's Road East, Wan Chai, HK",
        "has_AE": "Yes"
      }
    },
    {
      "type": "Feature",
      "geometry": {
        "type": "Point",
        "coordinates": [
          114.03151,
          22.208059
        ]
      },
      "properties": {
        "name_eng": "St. John Hospital",
        "name_tc": "長洲醫院",
        "cluster": "Hong Kong Island Cluster",
        "address": "Cheung Chau Hospital Road, Tung Wan, Cheung Chau",
        "has_AE": "Yes"
      }
    },
    {
      "type": "Feature",
      "geometry": {
        "type": "Point",
        "coordinates": [
          114.17774,
          22.275313
        ]
      },
      "properties": {
        "name_eng": "Tang Shiu Kin Hospital",
        "name_tc": "鄧肇堅醫院",
        "cluster": "Hong Kong Island Cluster",
        "address": "282 Queen's Road East, Wan Chai, HK",
        "has_AE": "No"
      }
    },
    {
      "type": "Feature",
      "geometry": {
        "type": "Point",
        "coordinates": [
          114.12424,
          22.271574
        ]
      },
      "properties": {
        "name_eng": "The Duchess of Kent Children's Hospital at Sandy Bay",
        "name_tc": "大口環根德公爵夫人兒童醫院",
        "cluster": "Hong Kong Island Cluster",
        "address": "12 Sandy Bay Road, Pokfulam, HK",
        "has_AE": "No"
      }
    },
    {
      "type": "Feature",
      "geometry": {
        "type": "Point",
        "coordinates": [
          114.14457,
          22.286146
        ]
      },
      "properties": {
        "name_eng": "Tsan Yuk Hospital",
        "name_tc": "贊育醫院",
        "cluster": "Hong Kong Island Cluster",
        "address": "30 Hospital Road, Sai Ying Pun, HK",
        "has_AE": "No"
      }
    },
    {
      "type": "Feature",
      "geometry": {
        "type": "Point",
        "coordinates": [
          114.19026,
          22.274725
        ]
      },
      "properties": {
        "name_eng": "Tung Wah Eastern Hospital",
        "name_tc": "東華東院",
        "cluster": "Hong Kong Island Cluster",
        "address": "19 Eastern Hospital Road, Causeway Bay, HK",
        "has_AE": "No"
      }
    },
    {
      "type": "Feature",
      "geometry": {
        "type": "Point",
        "coordinates": [
          114.12483,
          22.271408
        ]
      },
      "properties": {
        "name_eng": "Tung Wah Group of Hospitals Fung Yiu King Hospital",
        "name_tc": "東華三院馮堯敬醫院",
        "cluster": "Hong Kong Island Cluster",
        "address": "9 Sandy Bay Road, Pokfulam, HK",
        "has_AE": "No"
      }
    },
    {
      "type": "Feature",
      "geometry": {
        "type": "Point",
        "coordinates": [
          114.14661,
          22.284955
        ]
      },
      "properties": {
        "name_eng": "Tung Wah Hospital",
        "name_tc": "東華醫院",
        "cluster": "Hong Kong Island Cluster",
        "address": "12 Po Yan Street, Sheung Wan, HK",
        "has_AE": "No"
      }
    },
    {
      "type": "Feature",
      "geometry": {
        "type": "Point",
        "coordinates": [
          114.17591,
          22.250966
        ]
      },
      "properties": {
        "name_eng": "Wong Chuk Hang Hospital",
        "name_tc": "黃竹坑醫院",
        "cluster": "Hong Kong Island Cluster",
        "address": "2 Wong Chuk Hang Path, Wong Chuk Hang, HK",
        "has_AE": "No"
      }
    },
    {
      "type": "Feature",
      "geometry": {
        "type": "Point",
        "coordinates": [
          114.18874,
          22.33568
        ]
      },
      "properties": {
        "name_eng": "Hong Kong Buddhist Hospital",
        "name_tc": "香港佛教醫院",
        "cluster": "Kowloon Central Cluster",
        "address": "10 Heng Lam Street, Lok Fu, KLN",
        "has_AE": "No"
      }
    },
    {
      "type": "Feature",
      "geometry": {
        "type": "Point",
        "coordinates": [
          114.20886,
          22.315757
        ]
      },
      "properties": {
        "name_eng": "Hong Kong Children's Hospital",
        "name_tc": "香港兒童醫院",
        "cluster": "Kowloon Central Cluster",
        "address": "1 Shing Cheong Road, Kowloon Bay, KLN",
        "has_AE": "No"
      }
    },
    {
      "type": "Feature",
      "geometry": {
        "type": "Point",
        "coordinates": [
          114.18462,
          22.324927
        ]
      },
      "properties": {
        "name_eng": "Hong Kong Eye Hospital",
        "name_tc": "香港眼科醫院",
        "cluster": "Kowloon Central Cluster",
        "address": "147K Argyle Street, KLN",
        "has_AE": "No"
      }
    },
    {
      "type": "Feature",
      "geometry": {
        "type": "Point",
        "coordinates": [
          114.17443,
          22.310794
        ]
      },
      "properties": {
        "name_eng": "Hong Kong Red Cross Blood Transfusion Service",
        "name_tc": "香港紅十字會輸血服務中心",
        "cluster": "Kowloon Central Cluster",
        "address": "15 King's Park Rise, KLN",
        "has_AE": "No"
      }
    },
    {
      "type": "Feature",
      "geometry": {
        "type": "Point",
        "coordinates": [
          114.17957,
          22.323708
        ]
      },
      "properties": {
        "name_eng": "Kowloon Hospital",
        "name_tc": "九龍醫院",
        "cluster": "Kowloon Central Cluster",
        "address": "147A Argyle Street, KLN",
        "has_AE": "No"
      }
    },
    {
      "type": "Feature",
      "geometry": {
        "type": "Point",
        "coordinates": [
          114.1721,
          22.31429
        ]
      },
      "properties": {
        "name_eng": "Kwong Wah Hospital",
        "name_tc": "廣華醫院",
        "cluster": "Kowloon Central Cluster",
        "address": "25 Waterloo Road, KLN",
        "has_AE": "Yes"
      }
    },
    {
      "type": "Feature",
      "geometry": {
        "type": "Point",
        "coordinates": [
          114.19657,
          22.345588
        ]
      },
      "properties": {
        "name_eng": "Our Lady of Maryknoll Hospital",
        "name_tc": "聖母醫院",
        "cluster": "Kowloon Central Cluster",
        "address": "118 Shatin Pass Road, Wong Tai Sin, KLN",
        "has_AE": "No"
      }
    },
    {
      "type": "Feature",
      "geometry": {
        "type": "Point",
        "coordinates": [
          114.17519,
          22.30886
        ]
      },
      "properties": {
        "name_eng": "Queen Elizabeth Hospital",
        "name_tc": "伊利沙伯醫院",
        "cluster": "Kowloon Central Cluster",
        "address": "30 Gascoigne Road, KLN",
        "has_AE": "Yes"
      }
    },
    {
      "type": "Feature",
      "geometry": {
        "type": "Point",
        "coordinates": [
          114.19632,
          22.346808
        ]
      },
      "properties": {
        "name_eng": "Tung Wah Group of Hospitals Wong Tai Sin Hospital",
        "name_tc": "東華三院黃大仙醫院",
        "cluster": "Kowloon Central Cluster",
        "address": "124 Shatin Pass Road, Wong Tai Sin, KLN",
        "has_AE": "No"
      }
    },
    {
      "type": "Feature",
      "geometry": {
        "type": "Point",
        "coordinates": [
          114.25627,
          22.313773
        ]
      },
      "properties": {
        "name_eng": "Haven of Hope Hospital",
        "name_tc": "靈實醫院",
        "cluster": "Kowloon East Cluster",
        "address": "8 Haven of Hope Road, Tseung Kwan O",
        "has_AE": "No"
      }
    },
    {
      "type": "Feature",
      "geometry": {
        "type": "Point",
        "coordinates": [
          114.27021,
          22.317964
        ]
      },
      "properties": {
        "name_eng": "Tseung Kwan O Hospital",
        "name_tc": "將軍澳醫院",
        "cluster": "Kowloon East Cluster",
        "address": "No. 2 Po Ning Lane, Hang Hau, Tseung Kwan O",
        "has_AE": "Yes"
      }
    },
    {
      "type": "Feature",
      "geometry": {
        "type": "Point",
        "coordinates": [
          114.2279,
          22.322291
        ]
      },
      "properties": {
        "name_eng": "United Christian Hospital",
        "name_tc": "基督教聯合醫院",
        "cluster": "Kowloon East Cluster",
        "address": "130 Hip Wo Street, Kwun Tong, KLN",
        "has_AE": "Yes"
      }
    },
    {
      "type": "Feature",
      "geometry": {
        "type": "Point",
        "coordinates": [
          114.15231,
          22.340629
        ]
      },
      "properties": {
        "name_eng": "Caritas Medical Centre",
        "name_tc": "明愛醫院",
        "cluster": "Kowloon West Cluster",
        "address": "111 Wing Hong Street, Sham Shui Po, KLN",
        "has_AE": "Yes"
      }
    },
    {
      "type": "Feature",
      "geometry": {
        "type": "Point",
        "coordinates": [
          114.13336,
          22.342892
        ]
      },
      "properties": {
        "name_eng": "Kwai Chung Hospital",
        "name_tc": "葵涌醫院",
        "cluster": "Kowloon West Cluster",
        "address": "3-15 Kwai Chung Hospital Road, NT",
        "has_AE": "No"
      }
    },
    {
      "type": "Feature",
      "geometry": {
        "type": "Point",
        "coordinates": [
          113.93914,
          22.282571
        ]
      },
      "properties": {
        "name_eng": "North Lantau Hospital",
        "name_tc": "北大嶼山醫院",
        "cluster": "Kowloon West Cluster",
        "address": "8 Chung Yan Road, Tung Chung, Lantau Island",
        "has_AE": "Yes"
      }
    },
    {
      "type": "Feature",
      "geometry": {
        "type": "Point",
        "coordinates": [
          114.1347,
          22.340057
        ]
      },
      "properties": {
        "name_eng": "Princess Margaret Hospital",
        "name_tc": "瑪嘉烈醫院",
        "cluster": "Kowloon West Cluster",
        "address": "2-10 Princess Margaret Hospital Road, Kwai Chung, New Territories",
        "has_AE": "Yes"
      }
    },
    {
      "type": "Feature",
      "geometry": {
        "type": "Point",
        "coordinates": [
          114.11956,
          22.369548
        ]
      },
      "properties": {
        "name_eng": "Yan Chai Hospital",
        "name_tc": "仁濟醫院",
        "cluster": "Kowloon West Cluster",
        "address": "7-11 Yan Chai Street, Tsuen Wan, NT",
        "has_AE": "Yes"
      }
    },
    {
      "type": "Feature",
      "geometry": {
        "type": "Point",
        "coordinates": [
          114.17479,
          22.458696
        ]
      },
      "properties": {
        "name_eng": "Alice Ho Miu Ling Nethersole Hospital",
        "name_tc": "雅麗氏何妙齡那打素醫院",
        "cluster": "New Territories East Cluster",
        "address": "11 Chuen On Road, Tai Po, NT",
        "has_AE": "Yes"
      }
    },
    {
      "type": "Feature",
      "geometry": {
        "type": "Point",
        "coordinates": [
          114.2151,
          22.398512
        ]
      },
      "properties": {
        "name_eng": "Bradbury Hospice",
        "name_tc": "白普理寧養中心",
        "cluster": "New Territories East Cluster",
        "address": "17 A Kung Kok Shan Road, Shatin, NT",
        "has_AE": "No"
      }
    },
    {
      "type": "Feature",
      "geometry": {
        "type": "Point",
        "coordinates": [
          114.21653,
          22.39918
        ]
      },
      "properties": {
        "name_eng": "Cheshire Home, Shatin",
        "name_tc": "沙田慈氏護養院",
        "cluster": "New Territories East Cluster",
        "address": "30 A Kung Kok Shan Road, Shatin, NT",
        "has_AE": "No"
      }
    },
    {
      "type": "Feature",
      "geometry": {
        "type": "Point",
        "coordinates": [
          114.12456,
          22.496832
        ]
      },
      "properties": {
        "name_eng": "North District Hospital",
        "name_tc": "北區醫院",
        "cluster": "New Territories East Cluster",
        "address": "9 Po Kin Road, Sheung Shui, New Territories",
        "has_AE": "Yes"
      }
    },
    {
      "type": "Feature",
      "geometry": {
        "type": "Point",
        "coordinates": [
          114.20129,
          22.379939
        ]
      },
      "properties": {
        "name_eng": "Prince of Wales Hospital",
        "name_tc": "威爾斯親王醫院",
        "cluster": "New Territories East Cluster",
        "address": "30-32 Ngan Shing Street, Shatin, NT",
        "has_AE": "Yes"
      }
    },
    {
      "type": "Feature",
      "geometry": {
        "type": "Point",
        "coordinates": [
          114.21263,
          22.398115
        ]
      },
      "properties": {
        "name_eng": "Shatin Hospital",
        "name_tc": "沙田醫院",
        "cluster": "New Territories East Cluster",
        "address": "33 A Kung Kok Street, Ma On Shan, Shatin, NT",
        "has_AE": "No"
      }
    },
    {
      "type": "Feature",
      "geometry": {
        "type": "Point",
        "coordinates": [
          114.17464,
          22.46143
        ]
      },
      "properties": {
        "name_eng": "Tai Po Hospital",
        "name_tc": "大埔醫院",
        "cluster": "New Territories East Cluster",
        "address": "9 Chuen On Road, Tai Po, NT",
        "has_AE": "No"
      }
    },
    {
      "type": "Feature",
      "geometry": {
        "type": "Point",
        "coordinates": [
          113.97374,
          22.410011
        ]
      },
      "properties": {
        "name_eng": "Castle Peak Hospital",
        "name_tc": "青山醫院",
        "cluster": "New Territories West Cluster",
        "address": "15 Tsing Chung Koon Road, Tuen Mun, NT",
        "has_AE": "No"
      }
    },
    {
      "type": "Feature",
      "geometry": {
        "type": "Point",
        "coordinates": [
          114.04159,
          22.44523
        ]
      },
      "properties": {
        "name_eng": "Pok Oi Hospital",
        "name_tc": "博愛醫院",
        "cluster": "New Territories West Cluster",
        "address": "Au Tau, Yuen Long, NT",
        "has_AE": "Yes"
      }
    },
    {
      "type": "Feature",
      "geometry": {
        "type": "Point",
        "coordinates": [
          113.97487,
          22.41005
        ]
      },
      "properties": {
        "name_eng": "Siu Lam Hospital",
        "name_tc": "小欖醫院",
        "cluster": "New Territories West Cluster",
        "address": "15 Tsing Chung Koon Road, Tuen Mun, N.T.",
        "has_AE": "No"
      }
    },
    {
      "type": "Feature",
      "geometry": {
        "type": "Point",
        "coordinates": [
          113.99585,
          22.458704
        ]
      },
      "properties": {
        "name_eng": "Tin Shui Wai Hospital",
        "name_tc": "天水圍醫院",
        "cluster": "New Territories West Cluster",
        "address": "11 Tin Tan Street, Tin Shui Wai, NT",
        "has_AE": "Yes"
      }
    },
    {
      "type": "Feature",
      "geometry": {
        "type": "Point",
        "coordinates": [
          113.97621,
          22.40708
        ]
      },
      "properties": {
        "name_eng": "Tuen Mun Hospital",
        "name_tc": "屯門醫院",
        "cluster": "New Territories West Cluster",
        "address": "23 Tsing Chung Koon Road, Tuen Mun, NT",
        "has_AE": "Yes"
      }
    }
  ]
}